City_ID,Unnamed: 0,City,Lat,Lng,Max Temp,Humidity,Cloudiness,Wind Speed,Country,Date
0,0,sodankyla,67.4167,26.6,8.45,74,32,3.06,FI,1696167494
1,1,sambava,-14.2667,50.1667,25.24,74,51,3.51,MG,1696167495
2,2,grytviken,-54.2811,-36.5092,4.63,84,57,4.14,GS,1696167495
3,3,kurchatov,51.6601,35.6521,22.23,36,53,4.94,RU,1696167431
4,4,balaklava,44.5,33.6,21.66,51,97,3.19,UA,1696167495
5,5,lospalos,-8.5186,127.0025,21.3,95,24,1.84,TL,1696167495
6,6,fortuna,40.5982,-124.1573,8.51,97,100,0.0,US,1696167496
7,7,kavieng,-2.5744,150.7967,27.05,83,97,2.64,PG,1696167496
8,8,atafu village,-8.5421,-172.5159,28.35,69,96,0.84,TK,1696167496
9,9,blackmans bay,-43.0167,147.3167,7.51,77,9,2.73,AU,1696167496
10,10,afaahiti,-17.75,-149.2833,22.93,85,39,8.96,PF,1696167497
11,11,columbus,39.9612,-82.9988,20.8,89,0,1.54,US,1696167374
12,12,hasaki,35.7333,140.8333,22.94,83,100,5.8,JP,1696167497
13,13,lazaro cardenas,17.9583,-102.2,27.67,84,100,1.6,MX,1696167497
14,14,singa,13.15,33.9333,35.49,34,82,1.88,SD,1696167497
15,15,ilulissat,69.2167,-51.1,-0.99,64,0,2.06,GL,1696167498
16,16,bethel,41.3712,-73.414,17.9,92,0,0.45,US,1696167498
17,17,east london,-33.0153,27.9116,18.52,68,0,4.12,ZA,1696167498
18,18,albany,42.6001,-73.9662,16.23,95,0,0.89,US,1696167498
19,19,hermanus,-34.4187,19.2345,19.14,52,0,5.32,ZA,1696167498
20,20,puerto natales,-51.7236,-72.4875,2.25,87,75,8.23,CL,1696167361
21,21,tsiombe,-25.3,45.4833,28.24,38,1,4.98,MG,1696167499
22,22,thunder bay,48.4001,-89.3168,15.99,100,100,4.12,CA,1696167498
23,23,ushuaia,-54.8,-68.3,2.81,75,75,4.63,AR,1696167499
24,24,alofi,-19.0595,-169.9187,21.94,68,100,5.66,NU,1696167500
25,25,ceeldheer,3.8488,47.1806,27.86,70,1,7.78,SO,1696167500
26,26,lae,-6.7221,146.9847,24.54,91,55,1.05,PG,1696167500
27,27,susuman,62.7833,148.1667,-1.12,73,13,1.79,RU,1696167500
28,28,tiksi,71.6872,128.8694,-7.04,90,55,3.24,RU,1696167501
29,29,bandrele,-12.9067,45.1914,28.86,65,0,2.57,YT,1696167501
30,30,bredasdorp,-34.5322,20.0403,17.26,57,0,7.38,ZA,1696167501
31,31,qaqortoq,60.7167,-46.0333,3.19,76,99,2.71,GL,1696167501
32,32,nemuro,43.3236,145.575,16.55,92,100,2.97,JP,1696167502
33,33,waitangi,-43.9535,-176.5597,11.57,85,58,4.02,NZ,1696167502
34,34,port lincoln,-34.7333,135.8667,12.41,79,0,1.83,AU,1696167502
35,35,port elizabeth,-33.918,25.5701,19.16,61,75,3.13,ZA,1696167502
36,36,arkalyk,50.2486,66.9114,14.51,47,100,3.57,KZ,1696167503
37,37,olonkinbyen,70.9221,-8.7187,0.56,70,100,4.07,SJ,1696167503
38,38,port moresby,-9.4431,147.1797,25.68,83,20,8.75,PG,1696167503
39,39,isafjordur,66.0755,-23.124,8.02,76,75,5.66,IS,1696167503
40,40,yellowknife,62.456,-114.3525,7.45,96,75,4.63,CA,1696167314
41,41,edinburgh of the seven seas,-37.0676,-12.3116,9.72,59,100,12.04,SH,1696167504
42,42,grand gaube,-20.0064,57.6608,26.22,68,38,3.13,MU,1696167504
43,43,udachny,66.4167,112.4,-0.86,100,100,6.96,RU,1696167504
44,44,qamdo,31.1667,97.2333,7.56,52,10,1.48,CN,1696167504
45,45,camacupa,-12.0167,17.4833,19.36,71,100,5.28,AO,1696167505
46,46,papatowai,-46.5619,169.4708,14.04,61,99,5.01,NZ,1696167505
47,47,kayes,14.0,-11.0,34.0,49,70,1.18,ML,1696167505
48,48,fort bragg,35.139,-79.006,21.57,88,0,2.57,US,1696167505
49,49,selkirk,50.1436,-96.8845,17.31,91,100,3.28,CA,1696167505
50,50,severo-yeniseyskiy,60.3725,93.0408,-1.35,68,83,5.81,RU,1696167506
51,51,prince rupert,54.3161,-130.3201,9.83,91,100,13.38,CA,1696167506
52,52,horsham,51.064,-0.3272,23.23,71,40,4.63,GB,1696167506
53,53,davidsonville,-26.1547,27.8503,28.86,22,0,3.09,ZA,1696167506
54,54,bonthe,7.5264,-12.505,29.14,74,100,3.95,SL,1696167506
55,55,haiku-pauwela,20.9219,-156.3051,25.58,77,0,2.57,US,1696167507
56,56,lompoc,34.6391,-120.4579,12.55,87,100,1.54,US,1696167507
57,57,vorgashor,67.5833,63.95,7.08,98,100,5.2,RU,1696167507
58,58,jamestown,42.097,-79.2353,16.97,100,100,0.0,US,1696167381
59,59,labuan,5.2767,115.2417,28.2,74,20,1.54,MY,1696167507
60,60,opuwo,-18.0607,13.84,36.61,6,0,3.95,,1696167508
61,61,pitkyaranta,61.5734,31.4792,10.84,89,100,8.28,RU,1696167508
62,62,gadzhiyevo,69.2551,33.3362,6.29,76,93,5.59,RU,1696167508
63,63,berezovyy,51.6667,135.7,7.46,96,100,2.45,RU,1696167508
64,64,colonia,50.9333,6.95,27.25,54,0,2.57,DE,1696167509
65,65,port-aux-francais,-49.35,70.2167,5.8,97,100,15.94,TF,1696167509
66,66,sitka,57.0531,-135.33,12.94,71,100,5.66,US,1696167509
67,67,khandyga,62.6667,135.6,2.94,70,97,0.92,RU,1696167509
68,68,thompson,55.7435,-97.8558,4.09,87,100,2.57,CA,1696167510
69,69,menaka,15.9182,2.4022,39.48,22,10,4.57,ML,1696167510
70,70,vadso,70.0744,29.7487,8.09,76,100,2.06,NO,1696167510
71,71,belabo,4.9333,13.3,26.58,87,98,0.47,CM,1696167511
72,72,keflavik,64.0049,-22.5624,11.95,76,0,5.14,IS,1696167511
73,73,garissa,-0.4536,39.6401,34.41,30,32,7.34,KE,1696167460
74,74,gamay,12.3854,125.2979,27.16,85,100,4.03,PH,1696167511
75,75,yesan,36.6776,126.8427,16.83,74,3,1.19,KR,1696167511
76,76,stanley,54.868,-1.6985,19.88,75,20,3.6,GB,1696167512
77,77,flying fish cove,-10.4217,105.6791,23.82,88,40,4.63,CX,1696167512
78,78,chibougamau,49.9168,-74.3659,13.72,68,6,1.59,CA,1696167512
79,79,touros,-5.1989,-35.4608,29.64,53,55,7.53,BR,1696167284
80,80,petropavlovsk-kamchatsky,53.0452,158.6483,6.36,91,100,2.0,RU,1696167512
81,81,adamstown,-25.066,-130.1015,20.52,82,43,10.65,PN,1696167513
82,82,ust-nera,64.5667,143.2,-1.9,61,44,3.22,RU,1696167513
83,83,kapuskasing,49.4169,-82.4331,10.05,100,100,2.06,CA,1696167513
84,84,antsiranana,-12.2787,49.2917,30.42,48,20,3.09,MG,1696167513
85,85,champerico,14.3,-91.9167,26.3,79,17,2.8,GT,1696167514
86,86,tindouf,27.6711,-8.1474,35.85,11,88,9.59,DZ,1696167514
87,87,lihue,21.9789,-159.3672,24.77,84,20,5.66,US,1696167388
88,88,port mathurin,-19.6833,63.4167,22.79,83,83,9.06,MU,1696167514
89,89,tazovsky,67.4667,78.7,-0.06,95,100,6.29,RU,1696167514
90,90,cabo san lucas,22.8909,-109.9124,27.09,78,0,5.14,MX,1696167263
91,91,sao vicente,-23.9631,-46.3919,25.1,59,100,2.57,BR,1696167344
92,92,vernon,50.2581,-119.2691,5.72,89,85,3.6,CA,1696167515
93,93,soio,-6.1349,12.3689,26.67,72,66,4.26,AO,1696167515
94,94,buzuluk,52.7807,52.2635,18.31,45,11,2.68,RU,1696167318
95,95,hanzhong,33.0728,107.0303,16.09,96,100,0.17,CN,1696167515
96,96,badger,64.8,-147.5333,1.95,74,40,4.12,US,1696167251
97,97,hauterive,46.0901,3.4459,28.42,27,9,1.31,FR,1696167516
98,98,longyearbyen,78.2186,15.6401,-3.09,68,75,7.2,SJ,1696167516
99,99,puerto ayora,-0.7393,-90.3518,23.64,93,100,2.24,EC,1696167516
100,100,hadibu,12.65,54.0333,27.8,80,71,1.13,YE,1696167516
101,101,smara,26.7384,-11.6719,39.6,9,69,8.67,EH,1696167517
102,102,west island,-12.1568,96.8225,25.99,73,75,7.2,CC,1696167517
103,103,richards bay,-28.783,32.0377,18.82,63,100,5.0,ZA,1696167517
104,104,vilyuchinsk,52.9306,158.4028,7.18,82,99,0.99,RU,1696167517
105,105,college,64.8569,-147.8028,1.99,72,100,4.12,US,1696167517
106,106,eqbaliyeh,35.3022,51.5358,29.69,14,98,2.3,IR,1696167518
107,107,seymour,38.9592,-85.8903,20.4,60,0,2.5,US,1696167297
108,108,ishigaki,24.3448,124.1572,27.07,89,40,5.66,JP,1696167518
109,109,floro,61.5996,5.0328,12.04,66,75,5.14,NO,1696167518
110,110,enewetak,11.3474,162.3373,29.13,76,99,7.01,MH,1696167518
111,111,nar'yan-mar,67.6713,53.087,10.62,98,100,4.02,RU,1696167519
112,112,nadi,-17.8,177.4167,20.0,68,20,3.09,FJ,1696167519
113,113,misratah,32.3754,15.0925,25.42,60,0,5.06,LY,1696167519
114,114,santona,43.4439,-3.4576,32.06,59,26,2.21,ES,1696167519
115,115,saipan,15.1355,145.701,28.39,89,20,4.12,MP,1696167520
116,116,chernyshevskiy,63.0128,112.4714,5.57,80,100,2.65,RU,1696167520
117,117,shenjiamen,29.9576,122.298,22.76,62,0,6.36,CN,1696167521
118,118,todos santos,23.45,-110.2167,26.28,90,0,2.96,MX,1696167521
119,119,invercargill,-46.4,168.35,15.57,66,100,6.26,NZ,1696167521
120,120,talnakh,69.4865,88.3972,-11.55,90,10,1.7,RU,1696167521
121,121,aykhal,66.0,111.5,1.71,94,100,5.36,RU,1696167521
122,122,iqaluit,63.7506,-68.5145,3.85,86,20,1.54,CA,1696167522
123,123,ouargla,31.9493,5.325,31.81,21,5,7.41,DZ,1696167312
124,124,kotma,23.2,81.9667,23.52,93,100,3.06,IN,1696167522
125,125,kailua-kona,19.6406,-155.9956,27.55,91,0,3.09,US,1696167522
126,126,lahad datu,5.0268,118.327,25.23,91,91,1.19,MY,1696167522
127,127,saint-pierre,-21.3393,55.4781,25.82,61,0,2.57,RE,1696167523
128,128,nouadhibou,20.931,-17.0347,35.99,20,99,5.14,MR,1696167523
129,129,margaret river,-33.95,115.0667,13.75,78,100,10.89,AU,1696167263
130,130,kharkhorin,47.1975,102.8238,9.24,43,100,1.17,MN,1696167523
131,131,masterton,-40.9597,175.6575,12.71,87,68,3.52,NZ,1696167423
132,132,ha'il,27.5219,41.6907,38.01,13,0,3.09,SA,1696167524
133,133,thurso,58.5927,-3.5259,16.14,70,0,7.23,GB,1696167524
134,134,karymskoye,51.6167,114.35,9.08,57,57,0.95,RU,1696167524
135,135,dudinka,69.4058,86.1778,-10.74,96,52,1.34,RU,1696167524
136,136,tura,25.5198,90.2201,24.23,97,61,1.56,IN,1696167525
137,137,beyneu,45.3167,55.2,21.89,36,6,2.01,KZ,1696167525
138,138,haenam,34.5711,126.5989,16.37,64,1,4.59,KR,1696167525
139,139,bang rakam,16.7585,100.1174,28.0,100,0,1.54,TH,1696167525
140,140,lenti,46.624,16.5386,25.53,47,20,1.35,HU,1696167526
141,141,teguise,29.0605,-13.564,25.12,69,0,5.66,ES,1696167526
142,142,nakamura,32.9833,132.9333,16.9,80,3,2.23,JP,1696167526
143,143,kokopo,-4.352,152.2633,25.22,89,81,2.94,PG,1696167526
144,144,pervomayskoye,43.919,46.7102,22.82,48,0,5.81,RU,1696167526
145,145,la union,-5.4,-80.75,23.61,63,86,4.69,PE,1696167526
146,146,ulsteinvik,62.3432,5.8487,15.5,73,100,2.24,NO,1696167527
147,147,alamos,27.0167,-108.9333,24.16,82,99,1.13,MX,1696167527
148,148,pangody,65.85,74.4859,2.11,99,100,3.38,RU,1696167527
149,149,whitehorse,60.7161,-135.0538,3.43,95,100,8.75,CA,1696167271
150,150,ilha solteira,-20.4328,-51.3425,27.97,62,97,2.03,BR,1696167528
151,151,new norfolk,-42.7826,147.0587,8.17,87,9,1.1,AU,1696167528
152,152,nuku'alofa,-21.1333,-175.2,21.19,68,40,5.66,TO,1696167468
153,153,los altos,37.3852,-122.1141,14.14,88,20,0.45,US,1696167528
154,154,punta arenas,-53.15,-70.9167,5.06,75,75,14.4,CL,1696167528
155,155,hawaiian paradise park,19.5933,-154.9731,22.8,94,100,2.06,US,1696167528
156,156,selfoss,63.9331,-20.9971,11.14,65,100,6.87,IS,1696167529
157,157,avarua,-21.2078,-159.775,25.03,94,75,3.09,CK,1696167529
158,158,hamilton,39.1834,-84.5333,20.55,88,0,2.06,US,1696167424
159,159,puerto yuca,2.9383,-73.2083,26.87,79,100,2.06,CO,1696167529
160,160,sandnessjoen,66.0217,12.6316,10.23,76,75,1.03,NO,1696167529
161,161,bubaque,11.2833,-15.8333,28.17,77,100,2.01,GW,1696167530
162,162,santo antonio,-6.3106,-35.4789,32.75,37,76,6.47,BR,1696167530
163,163,gilgit,35.9221,74.3087,22.86,31,54,1.12,PK,1696167293
164,164,burang,30.25,81.1667,7.47,73,26,2.41,CN,1696167530
165,165,mashhad,36.297,59.6062,26.08,27,0,3.09,IR,1696167531
166,166,al qusiyah,27.4402,30.8184,35.15,24,96,8.34,EG,1696167404
167,167,howard springs,-12.497,131.047,27.68,75,69,1.9,AU,1696167531
168,168,amasra,41.7463,32.3863,22.03,74,79,2.98,TR,1696167531
169,169,callao,-12.0667,-77.15,20.4,82,75,3.6,PE,1696167518
170,170,praia da vitoria,38.7333,-27.0667,23.2,68,20,3.95,PT,1696167532
171,171,lebu,-37.6167,-73.65,11.42,76,100,4.34,CL,1696167532
172,172,christchurch,-43.5333,172.6333,17.11,48,100,6.17,NZ,1696166827
173,173,nuuk,64.1835,-51.7216,0.34,93,100,5.14,GL,1696167532
174,174,envira,-7.3,-70.2167,25.68,88,100,0.23,BR,1696167532
175,175,arauca,7.0847,-70.7591,27.98,74,0,1.54,CO,1696167532
176,176,sisimiut,66.9395,-53.6735,1.71,64,100,3.06,GL,1696167533
177,177,kincardine,56.0667,-3.7167,19.43,65,9,5.97,GB,1696167477
178,178,dar kulayb,26.0686,50.5039,37.09,50,0,5.94,BH,1696167533
179,179,constantia,44.1833,28.65,27.61,46,12,3.88,RO,1696167533
180,180,chonchi,-42.6128,-73.8092,7.56,99,100,1.35,CL,1696167534
181,181,uturoa,-16.7333,-151.4333,26.05,77,91,8.55,PF,1696167534
182,182,labasa,-16.4167,179.3833,21.87,69,98,5.62,FJ,1696167534
183,183,bandundu,-3.3167,17.3667,31.84,53,98,2.27,CD,1696167534
184,184,kosh-agach,50.0,88.6667,6.28,61,100,0.89,RU,1696167534
185,185,langtoucun,40.0261,124.3286,13.24,54,0,0.66,CN,1696167535
186,186,enriquillo,17.9,-71.2333,27.82,71,100,4.56,DO,1696167535
187,187,primero de mayo,-32.2552,-58.4228,16.57,26,0,1.92,AR,1696167535
188,188,wailua homesteads,22.0669,-159.378,24.44,85,20,5.66,US,1696167535
189,189,thief river falls,48.1191,-96.1812,19.53,88,30,5.62,US,1696167535
190,190,vyazemskiy,47.5378,134.7525,7.81,88,100,0.93,RU,1696167536
191,191,halifax,44.6453,-63.5724,12.0,94,17,1.03,CA,1696167430
192,192,el calafate,-50.3408,-72.2768,4.09,59,9,7.56,AR,1696167536
193,193,kasongo,-4.45,26.6667,34.15,35,29,1.18,CD,1696167536
194,194,kharp,66.8014,65.8081,6.01,97,100,0.81,RU,1696167537
195,195,richlands,37.0932,-81.7937,17.3,68,0,0.83,US,1696167431
196,196,acarau,-2.8856,-40.12,31.44,55,48,8.53,BR,1696167537
197,197,port alfred,-33.5906,26.891,19.54,70,52,2.24,ZA,1696167537
198,198,that phanom,16.9364,104.7104,25.97,87,60,1.43,TH,1696167537
199,199,portland,45.5234,-122.6762,10.35,93,20,0.0,US,1696167129
200,200,konstantinovka,49.6167,127.9833,7.37,84,77,2.2,RU,1696167538
201,201,lucapa,-8.4192,20.7447,28.5,48,99,0.78,AO,1696167538
202,202,kiruna,67.8557,20.2251,5.51,87,100,6.17,SE,1696167538
203,203,castillos,-34.1667,-53.8333,15.08,53,0,3.17,UY,1696167538
204,204,sarishabari,24.7333,89.8333,28.51,83,99,3.83,BD,1696167539
205,205,governador dix sept rosado,-5.4589,-37.5208,31.91,29,80,5.07,BR,1696167539
206,206,san juan de miraflores,-12.1629,-76.9635,19.54,83,85,3.5,PE,1696167539
207,207,kuzovatovo,53.5468,47.6866,19.34,49,17,3.67,RU,1696167539
208,208,san patricio,28.017,-97.5169,29.91,73,9,5.17,US,1696167540
209,209,"laikit, laikit ii (dimembe)",1.4792,124.9735,25.47,74,40,2.06,ID,1696167540
210,210,la passe,45.5549,-0.8967,30.13,40,54,1.52,FR,1696167540
211,211,estrela,-28.0611,-50.9383,17.58,66,57,1.97,BR,1696167540
212,212,ardakan,32.31,54.0175,29.5,13,2,3.1,IR,1696167540
213,213,east ballina,-28.8667,153.5833,18.27,78,93,6.76,AU,1696167541
214,214,palmer,42.1584,-72.3287,17.65,100,0,0.0,US,1696167514
215,215,pirallahi,40.4723,50.333,25.08,55,0,4.58,AZ,1696167541
216,216,bilibino,68.0546,166.4372,-7.8,88,100,0.6,RU,1696167535
217,217,arraial do cabo,-22.9661,-42.0278,20.92,88,75,8.23,BR,1696167541
218,218,queenstown,-31.8976,26.8753,17.19,32,0,5.23,ZA,1696167542
219,219,ta`u,-14.2336,-169.5144,26.59,82,25,8.28,AS,1696167542
220,220,nachingwea,-10.3833,38.7667,34.07,22,17,3.02,TZ,1696167399
221,221,cestos city,5.46,-9.5828,26.09,86,100,3.34,LR,1696167542
222,222,fort mcmurray,56.7268,-111.381,6.77,70,100,3.09,CA,1696167542
223,223,puerto aysen,-45.4,-72.7,5.56,92,100,2.0,CL,1696167543
224,224,vila franca do campo,37.7167,-25.4333,22.23,99,100,3.25,PT,1696167543
225,225,skoghall,59.3232,13.4655,15.31,58,0,2.57,SE,1696167543
226,226,guerrero negro,27.9769,-114.0611,18.7,77,1,3.89,MX,1696167543
227,227,ewo,-0.8725,14.8206,29.53,65,87,2.25,CG,1696167544
228,228,ebaye,8.7748,167.7392,28.01,83,0,3.6,MH,1696167544
229,229,nisa,43.7031,7.2661,29.15,52,0,1.54,FR,1696167544
230,230,igarka,67.4667,86.5833,-4.33,70,0,1.12,RU,1696167426
231,231,jiangyou,31.7667,104.7167,19.55,82,100,1.2,CN,1696167544
232,232,berdigestyakh,62.0989,126.6992,1.82,61,100,1.76,RU,1696167545
233,233,utrik,11.2278,169.8474,27.38,76,100,1.93,MH,1696167545
234,234,motueka,-41.1333,173.0167,11.17,94,100,1.53,NZ,1696167545
235,235,dabola,10.75,-11.1167,29.71,69,99,1.12,GN,1696167546
236,236,yaren,-0.5472,166.916,28.42,76,14,2.75,NR,1696167546
237,237,garden city,42.3256,-83.331,20.58,91,75,0.0,US,1696167475
238,238,carnarvon,-24.8667,113.6333,19.23,64,0,7.09,AU,1696167546
239,239,juan griego,11.0817,-63.9655,30.07,84,99,2.06,VE,1696167547
240,240,weno,7.4515,151.8468,27.97,89,40,1.54,FM,1696167547
241,241,merizo village,13.2658,144.6691,27.85,95,2,3.32,GU,1696167547
242,242,st. john's,47.5649,-52.7093,19.04,66,40,6.17,CA,1696167327
243,243,acapulco de juarez,16.8634,-99.8901,27.9,89,75,0.0,MX,1696167483
244,244,keelung,25.1283,121.7419,26.64,83,93,5.57,TW,1696167548
245,245,san andres,12.5847,-81.7006,30.01,79,20,2.57,CO,1696167548
246,246,flin flon,54.7682,-101.865,5.91,93,100,3.6,CA,1696167548
247,247,andrews,32.3187,-102.5457,21.59,84,100,5.66,US,1696167548
248,248,san antonio de pale,-1.4014,5.6325,25.47,81,62,6.03,GQ,1696167549
249,249,aasiaat,68.7098,-52.8699,-4.02,71,4,5.52,GL,1696167549
250,250,kupang,-10.1667,123.5833,27.32,74,20,2.06,ID,1696167549
251,251,kirensk,57.7853,108.1119,1.68,76,86,4.47,RU,1696167549
252,252,minas de marcona,-15.2119,-75.1103,16.44,75,58,4.47,PE,1696167549
253,253,codrington,-38.2667,141.9667,5.92,90,0,3.41,AU,1696167550
254,254,zambezi,-13.5432,23.1047,34.77,21,96,2.97,ZM,1696167550
255,255,mariana,-20.3778,-43.4161,27.32,53,89,2.42,BR,1696167476
256,256,port macquarie,-31.4333,152.9167,18.93,67,29,3.23,AU,1696167550
257,257,polyarnyy,69.1989,33.4478,6.47,76,95,5.89,RU,1696167512
258,258,novodvinsk,64.4165,40.8122,12.66,84,96,3.91,RU,1696167551
259,259,al matlin,37.2452,10.05,27.77,75,5,4.55,TN,1696167551
260,260,amahai,-3.3333,128.9167,25.48,87,56,0.79,ID,1696167551
261,261,majene,-3.5403,118.9707,25.08,83,14,1.53,ID,1696167551
262,262,kiffa,16.6166,-11.4045,39.35,9,93,2.17,MR,1696167552
263,263,zheshart,62.0731,49.5733,13.38,92,100,3.52,RU,1696167552
264,264,alzamay,55.5562,98.6644,-0.86,79,18,1.49,RU,1696167552
265,265,ankang,32.68,109.0172,17.3,96,100,1.47,CN,1696167552
266,266,labytnangi,66.6572,66.4183,5.59,96,100,2.65,RU,1696167553
267,267,ust'-ilimsk,58.0006,102.6619,1.36,74,100,4.47,RU,1696167553
268,268,amga,60.8953,131.9608,5.55,60,100,1.34,RU,1696167553
269,269,broken hill,-31.95,141.4333,19.35,35,30,5.94,AU,1696167553
270,270,alice springs,-23.7,133.8833,28.75,16,75,0.51,AU,1696167553
271,271,arkhangel'sk,64.5401,40.5433,12.85,84,100,3.58,RU,1696167554
272,272,yuzhno-kurilsk,44.0306,145.8556,15.76,96,100,1.38,RU,1696167554
273,273,merke,42.8728,73.1786,17.79,38,80,0.54,KZ,1696167554
274,274,geraldton,-28.7667,114.6,19.23,68,100,5.14,AU,1696167554
275,275,gamba,-2.65,10.0,27.33,73,50,5.2,GA,1696167555
276,276,kingscliff,-28.2667,153.5667,18.89,72,10,4.63,AU,1696167555
277,277,lethem,3.3803,-59.7968,36.39,26,95,1.47,GY,1696167555
278,278,tera,14.0078,0.7531,39.05,24,54,4.17,NE,1696167555
279,279,ribeira grande,38.5167,-28.7,22.65,68,40,4.02,PT,1696167556
280,280,kolonia town,6.964,158.206,24.0,100,100,1.03,FM,1696167556
281,281,calchaqui,-29.8877,-60.287,20.98,33,0,4.06,AR,1696167556
282,282,korla,41.7597,86.1469,21.16,29,3,1.68,CN,1696167556
283,283,bengkulu,-3.8004,102.2655,22.98,95,46,2.51,ID,1696167556
284,284,kodiak,57.79,-152.4072,9.73,93,100,3.09,US,1696167556
285,285,laurel,39.0993,-76.8483,21.46,80,0,3.09,US,1696167476
286,286,cox's bazar,21.4532,91.9798,26.14,90,97,3.47,BD,1696167557
287,287,anadyr,64.75,177.4833,-2.72,86,0,4.0,RU,1696167557
288,288,inarajan village,13.2736,144.7484,28.08,95,2,3.45,GU,1696167557
289,289,happy valley-goose bay,53.3168,-60.3315,13.17,88,100,6.69,CA,1696167558
290,290,auki,-8.7676,160.7034,24.71,88,72,2.77,SB,1696167558
291,291,saint-joseph,-21.3667,55.6167,25.21,73,14,1.9,RE,1696167558
292,292,klaksvik,62.2266,-6.589,11.51,89,99,11.25,FO,1696167558
293,293,antonio enes,-16.2325,39.9086,27.62,68,0,8.39,MZ,1696167558
294,294,nacala,-14.5428,40.6728,28.62,69,20,6.17,MZ,1696167559
295,295,badou,7.5833,0.6,28.44,76,56,1.36,TG,1696167559
296,296,sevastopol,44.6,33.5333,21.44,51,99,1.34,UA,1696167455
297,297,carutapera,-1.195,-46.02,31.2,57,78,5.12,BR,1696167559
298,298,kapshagay,43.8833,77.0833,18.58,41,99,1.74,KZ,1696167560
299,299,manado,1.487,124.8455,27.43,74,40,2.06,ID,1696167560
300,300,san luis acatlan,16.8167,-98.7333,24.49,93,99,1.61,MX,1696167560
301,301,ar rass,25.8694,43.4973,37.14,9,0,3.08,SA,1696167561
302,302,varzea grande,-15.6467,-56.1325,31.93,55,0,2.06,BR,1696167561
303,303,abengourou,6.7297,-3.4964,27.78,84,92,1.73,CI,1696167561
304,304,hacienda huancane,-15.8222,-70.8856,8.37,53,87,0.52,PE,1696167561
305,305,puerto san jose,13.9256,-90.8244,27.21,81,61,1.43,GT,1696167561
306,306,itoman,26.1247,127.6694,28.01,80,20,5.14,JP,1696167562
307,307,lappeenranta,61.0587,28.1887,14.03,67,75,6.69,FI,1696167562
308,308,bacalar,18.6667,-88.3833,25.06,100,75,0.0,MX,1696167562
309,309,rongelap,11.1635,166.8941,28.07,78,100,6.16,MH,1696167562
310,310,akureyri,65.6835,-18.0878,6.96,70,40,2.06,IS,1696167418
311,311,kletnya,53.3897,33.2171,16.66,51,96,3.6,RU,1696167563
312,312,chillicothe,39.3331,-82.9824,18.84,100,40,0.0,US,1696167424
313,313,akot,21.0964,77.0586,26.09,72,97,1.42,IN,1696167563
314,314,coishco,-9.0231,-78.6156,19.34,83,91,3.3,PE,1696167563
315,315,xuddur,4.1213,43.8894,31.13,40,100,4.59,SO,1696167563
316,316,nizhnyaya maktama,54.8636,52.4281,18.36,54,12,3.88,RU,1696167564
317,317,sosnogorsk,63.6023,53.8817,12.91,85,100,4.56,RU,1696167564
318,318,ostersund,63.1792,14.6357,10.34,71,40,7.2,SE,1696167565
319,319,anna regina,7.2644,-58.5077,29.7,72,100,3.54,GY,1696167565
320,320,rouyn-noranda,48.2398,-79.0288,15.05,94,100,2.57,CA,1696167308
321,321,lisala,2.15,21.5167,29.65,63,100,1.31,CD,1696167565
322,322,palikir - national government center,6.9248,158.1611,23.41,100,100,1.03,FM,1696167486
323,323,sao jose da coroa grande,-8.8978,-35.1478,27.01,63,80,3.76,BR,1696167566
324,324,roma,43.2128,-75.4557,17.19,97,6,1.76,US,1696167566
325,325,sosnovka,56.255,51.2842,17.32,54,13,4.67,RU,1696167566
326,326,salalah,17.0151,54.0924,30.05,66,0,5.14,OM,1696167566
327,327,puerto penasco,31.3167,-113.5333,23.22,46,0,1.84,MX,1696167567
328,328,dibba al-hisn,25.6196,56.2729,35.1,46,0,1.26,AE,1696167567
329,329,raduzhny,62.0961,77.475,4.02,79,100,6.18,RU,1696167567
330,330,santana,-0.0583,-51.1817,32.1,62,40,4.12,BR,1696167450
331,331,pisco,-13.7,-76.2167,19.03,82,0,1.54,PE,1696167567
332,332,karratha,-20.7377,116.8463,28.01,32,0,9.31,AU,1696167568
333,333,yoko,5.5333,12.3167,25.32,78,80,0.64,CM,1696167568
334,334,el jadid,33.2549,-8.506,25.67,59,73,5.05,MA,1696167568
335,335,iskateley,67.6803,53.1512,10.57,98,100,4.02,RU,1696167568
336,336,pangai,-19.8,-174.35,22.36,62,98,9.62,TO,1696167568
337,337,yakeshi,49.2833,120.7333,7.56,78,99,1.23,CN,1696167569
338,338,georgetown,5.4112,100.3354,29.99,76,20,1.03,MY,1696167569
339,339,caconda,-13.7333,15.0667,32.08,18,97,2.95,AO,1696167569
340,340,nova sintra,14.8667,-24.7167,24.17,78,62,9.91,CV,1696167569
341,341,nikolayevsk-on-amure,53.1406,140.73,9.55,97,100,2.96,RU,1696167569
342,342,pukchil-lodongjagu,40.2019,125.7483,10.81,61,0,1.62,KP,1696167570
343,343,klyuchi,52.2667,79.1667,8.66,76,0,2.97,RU,1696167570
344,344,anchau,10.9597,8.3916,29.62,57,97,2.78,NG,1696167570
345,345,balkanabat,39.5108,54.3671,25.99,15,0,2.28,TM,1696167571
346,346,salima,-13.7804,34.4587,34.45,20,0,2.44,MW,1696167571
347,347,tegueste,28.5167,-16.3167,28.64,20,0,4.12,ES,1696167571
348,348,kerikeri,-35.2268,173.9474,9.36,95,23,2.64,NZ,1696167430
349,349,pacific grove,36.6177,-121.9166,13.57,91,100,0.45,US,1696167572
350,350,santiago de cao,-7.9589,-79.2392,21.07,78,0,4.12,PE,1696167572
351,351,lensk,60.7253,114.9278,7.07,75,100,1.79,RU,1696167572
352,352,jijiga,9.35,42.8,26.88,28,37,4.7,ET,1696167572
353,353,general pico,-35.6566,-63.7568,21.37,26,7,6.23,AR,1696167572
354,354,ketchikan,55.3422,-131.6461,8.99,100,100,10.29,US,1696167573
355,355,sebezh,56.2955,28.4654,14.49,63,78,3.43,RU,1696167573
356,356,vila velha,-20.3297,-40.2925,24.97,80,100,3.6,BR,1696167573
357,357,tumayr,25.7039,45.868,35.73,10,0,4.29,SA,1696167401
358,358,oroqen zizhiqi,50.5667,123.7167,4.99,83,22,0.43,CN,1696167573
359,359,hami,42.8,93.45,19.41,23,76,1.74,CN,1696167574
360,360,kamaishi,39.2667,141.8833,19.09,77,100,3.68,JP,1696167574
361,361,san felipe,10.3399,-68.7425,33.27,50,86,0.54,VE,1696167574
362,362,manokwari,-0.8667,134.0833,26.41,83,93,3.87,ID,1696167574
363,363,kayyerkan,69.3786,87.7439,-11.5,85,70,2.12,RU,1696167574
364,364,casas grandes,30.3667,-107.95,17.74,62,0,3.15,MX,1696167575
365,365,usak,38.5,29.4167,19.86,52,80,6.28,TR,1696167575
366,366,vila do maio,15.1333,-23.2167,31.44,76,93,6.86,CV,1696167575
367,367,puerto baquerizo moreno,-0.9,-89.6,22.88,86,100,5.67,EC,1696167576
368,368,kismayo,-0.3582,42.5454,27.04,67,25,7.02,SO,1696167576
369,369,usinsk,65.9939,57.5281,10.87,92,100,9.09,RU,1696167576
370,370,naze,28.3667,129.4833,24.51,78,35,6.28,JP,1696167576
371,371,kostanay,53.1667,63.5833,13.16,71,0,2.0,KZ,1696167576
372,372,luanda,-8.8368,13.2343,26.0,73,75,3.6,AO,1696167516
373,373,morant bay,17.8815,-76.4093,32.79,68,65,1.95,JM,1696167577
374,374,kone,-21.0595,164.8658,19.1,80,99,2.15,NC,1696167577
375,375,pastavy,55.1168,26.8326,13.57,72,100,3.57,BY,1696167578
376,376,gassol,8.5333,10.4667,33.1,51,83,1.34,NG,1696167578
377,377,lillehammer,61.1146,10.4674,14.33,53,34,1.45,NO,1696167578
378,378,estevan,49.1334,-102.9842,14.19,94,100,5.66,CA,1696167091
379,379,sabang,5.8933,95.3214,28.4,76,60,6.79,ID,1696167578
380,380,tofol,5.3248,163.0078,28.56,72,33,2.49,FM,1696167579
381,381,zwedru,6.0667,-8.1281,27.73,85,84,1.58,LR,1696167579
382,382,zaraza,9.3503,-65.3245,33.85,52,62,1.7,VE,1696167579
383,383,perugorria,-29.3413,-58.6106,19.55,44,0,4.24,AR,1696167579
384,384,waveland,30.2869,-89.3762,24.99,64,0,5.4,US,1696167579
385,385,namtsy,62.7161,129.6658,3.97,45,99,1.56,RU,1696167580
386,386,udomlya,57.8794,34.9925,13.02,73,43,4.07,RU,1696167580
387,387,kudahuvadhoo,2.6708,72.8944,27.8,76,100,3.86,MV,1696167580
388,388,bardai,11.65,7.2333,27.63,64,93,3.06,NG,1696167580
389,389,yorkton,51.2167,-102.4677,10.91,93,100,4.12,CA,1696167581
390,390,verkhnevilyuysk,63.4453,120.3167,6.08,82,81,0.89,RU,1696167581
391,391,newman,37.3138,-121.0208,15.13,88,77,0.88,US,1696167581
392,392,huambo,-12.7761,15.7392,30.89,25,0,5.14,AO,1696167581
393,393,greymouth,-42.4667,171.2,12.49,96,100,5.75,NZ,1696167581
394,394,port pirie,-33.1833,138.0167,13.85,53,55,2.24,AU,1696167582
395,395,palghar,19.6833,72.75,28.07,78,100,3.05,IN,1696167582
396,396,mazatlan,23.2167,-106.4167,28.84,83,20,1.34,MX,1696167427
397,397,quellon,-43.1167,-73.6167,5.84,91,100,3.12,CL,1696167583
398,398,esikhaleni,-28.871,31.8996,18.57,66,100,5.62,ZA,1696167583
399,399,swakopmund,-22.6833,14.5333,21.47,84,56,1.79,,1696167583
400,400,kyelang,32.5833,77.0333,5.29,75,3,1.95,IN,1696167583
401,401,ancud,-41.8697,-73.8203,9.19,85,100,0.97,CL,1696167583
402,402,ashburton,-37.8626,145.0794,11.12,72,1,1.69,AU,1696167584
403,403,east wenatchee bench,47.4257,-120.2812,8.51,74,0,3.6,US,1696167584
404,404,taoudenni,22.6783,-3.9836,39.56,8,4,2.72,ML,1696167584
405,405,warmbad,-28.45,18.7333,28.07,27,0,2.4,,1696167584
406,406,banda aceh,5.5577,95.3222,26.97,82,20,4.87,ID,1696167585
407,407,jerez de garcia salinas,22.65,-103.0,17.44,59,8,1.34,MX,1696167585
408,408,bure,10.7,37.0667,19.0,89,21,0.34,ET,1696167585
409,409,sinabang,2.4803,96.3801,26.5,86,58,3.85,ID,1696167585
410,410,olyokminsk,60.3736,120.4264,6.0,87,67,0.8,RU,1696167585
411,411,den burg,53.0542,4.7972,21.11,73,100,6.17,NL,1696167586
412,412,noumea,-22.2763,166.4572,18.99,68,100,5.38,NC,1696167586
413,413,suzun,53.7841,82.3116,4.19,53,7,2.06,RU,1696167586
414,414,buulobarde,3.8538,45.5674,31.62,48,100,8.29,SO,1696167586
415,415,olinda,-8.0089,-34.8553,28.85,58,40,5.14,BR,1696167586
416,416,argo,37.6333,22.7333,24.88,40,54,1.32,GR,1696167587
417,417,nelson,-41.2833,173.2833,10.72,78,100,0.45,NZ,1696167587
418,418,barra de santo antonio,-9.4047,-35.5072,27.6,62,52,3.51,BR,1696167587
419,419,isangel,-19.55,169.2667,21.1,78,92,7.72,VU,1696167587
420,420,yoshida-kasugacho,37.6833,138.8833,18.8,80,64,3.81,JP,1696167588
421,421,aral,40.5156,81.2636,22.85,17,6,1.91,CN,1696167588
422,422,trairi,-3.2778,-39.2689,31.64,48,79,8.07,BR,1696167527
423,423,altay,47.8667,88.1167,9.11,60,36,2.6,CN,1696167588
424,424,shimoda,34.6667,138.95,22.84,74,95,5.58,JP,1696167588
425,425,juneau,58.3019,-134.4197,8.45,95,100,7.72,US,1696167589
426,426,bathsheba,13.2167,-59.5167,27.34,94,75,8.75,BB,1696167589
427,427,monor,47.3513,19.4473,23.0,40,0,4.12,HU,1696167589
428,428,paradip garh,20.3167,86.6167,28.32,85,100,5.81,IN,1696167589
429,429,baker city,44.7749,-117.8344,8.11,66,40,8.75,US,1696167505
430,430,mathba,22.2855,89.9629,27.1,89,19,2.81,BD,1696167590
431,431,dedougou,12.4667,-3.4667,38.98,25,16,4.51,BF,1696167590
432,432,vanimo,-2.6741,141.3028,26.08,88,82,1.25,PG,1696167590
433,433,udaipur,24.5712,73.6918,30.5,40,3,1.84,IN,1696167591
434,434,mount pearl,47.5166,-52.7813,18.58,65,40,6.17,CA,1696167591
435,435,gizo,-8.103,156.8419,26.99,84,99,7.7,SB,1696167591
436,436,bafoulabe,13.8065,-10.8321,34.64,50,58,1.36,ML,1696167592
437,437,bowling green,36.9903,-86.4436,19.19,89,0,0.0,US,1696167592
438,438,mar del plata,-38.0023,-57.5575,13.94,88,100,3.09,AR,1696167397
439,439,dhidhdhoo,6.8833,73.1,27.47,78,100,5.82,MV,1696167592
440,440,kencong,-8.2833,113.3667,22.92,90,6,0.94,ID,1696167592
441,441,maridi,4.9158,29.4742,29.78,56,82,1.85,SS,1696167592
442,442,eenhana,-17.4667,16.3333,38.47,7,0,3.23,,1696167593
443,443,tralee,52.2704,-9.7026,18.14,68,20,4.12,IE,1696167593
444,444,magadan,59.5667,150.8,7.68,86,100,1.34,RU,1696167470
445,445,hafar al-batin,28.4328,45.9708,39.32,10,0,2.57,SA,1696167593
446,446,palmares do sul,-30.2578,-50.5097,16.79,60,22,2.89,BR,1696167593
447,447,katima mulilo,-17.5,24.2667,39.31,10,6,4.01,,1696167594
448,448,goure,13.9835,10.2704,25.34,67,100,5.5,NE,1696167594
449,449,dalbandin,28.8947,64.4101,27.53,11,0,2.75,PK,1696167594
450,450,okhotsk,59.3833,143.3,7.29,77,100,1.89,RU,1696167594
451,451,puerto carreno,6.189,-67.4859,26.99,89,20,2.06,CO,1696167595
452,452,kodinsk,58.6881,99.1844,2.47,67,97,4.67,RU,1696167595
453,453,tshikapa,-6.4167,20.8,34.96,37,81,1.68,CD,1696167595
454,454,kapa'a,22.0752,-159.319,25.18,84,20,5.66,US,1696167595
455,455,puerto escondido,15.85,-97.0667,26.46,65,75,0.0,MX,1696167595
456,456,oranjestad,12.524,-70.027,30.97,70,20,5.14,AW,1696167333
457,457,galle,6.0367,80.217,25.87,85,83,2.38,LK,1696167596
458,458,rawson,-43.3002,-65.1023,17.96,33,100,7.31,AR,1696167596
459,459,papao,-17.75,-149.55,23.82,82,4,9.95,PF,1696167596
460,460,la sarre,48.8002,-79.1996,16.44,78,34,1.23,CA,1696167428
461,461,ceerigaabo,10.6162,47.368,24.14,23,1,6.51,SO,1696167597
462,462,gela,37.0803,14.2307,33.3,55,5,4.88,IT,1696167597
463,463,kamiiso,41.8167,140.65,14.34,86,3,3.75,JP,1696167597
464,464,el granada,37.5027,-122.4694,14.38,92,0,2.06,US,1696167597
465,465,robertsport,6.7533,-11.3686,27.33,81,100,3.76,LR,1696167597
466,466,campo gallo,-26.5833,-62.85,25.51,33,0,2.97,AR,1696167598
467,467,linfen,36.0889,111.5189,16.54,61,100,2.4,CN,1696167598
468,468,nagqu,31.5,92.0,3.62,96,64,3.52,CN,1696167598
469,469,gorom-gorom,14.4439,-0.2361,39.75,21,35,4.59,BF,1696167598
470,470,paulista,-7.9408,-34.8731,28.92,59,89,4.62,BR,1696167598
471,471,chebba,35.2372,11.115,25.89,56,0,6.26,TN,1696167351
472,472,brookings,44.3114,-96.7984,22.28,76,0,6.17,US,1696167599
473,473,kabwe,-14.4469,28.4464,34.82,18,68,4.98,ZM,1696167599
474,474,nelson bay,-32.7167,152.15,21.03,89,72,8.49,AU,1696167599
475,475,lata,40.1629,-8.3327,32.73,18,14,2.29,PT,1696167600
476,476,lang suan,9.9456,99.0785,25.73,85,14,2.82,TH,1696167600
477,477,mentougou,39.9392,116.0917,13.52,45,100,1.79,CN,1696167600
478,478,xindi,29.8167,113.4667,22.58,71,100,2.91,CN,1696167601
479,479,pio xii,-3.8325,-45.1525,36.09,37,50,2.69,BR,1696167601
480,480,eregli,37.5133,34.0467,22.04,41,100,1.86,TR,1696167601
481,481,al hasaheisa,14.7526,33.2984,38.74,21,7,2.34,SD,1696167601
482,482,harstad,68.799,16.5293,7.66,97,100,14.75,NO,1696167601
483,483,mizdah,31.4451,12.9801,27.03,23,0,3.03,LY,1696167602
484,484,mikhaylovskoye,51.8239,79.7172,8.55,82,4,3.16,RU,1696167602
485,485,manta,-0.95,-80.7333,26.88,65,75,4.63,EC,1696167602
486,486,crane,31.3974,-102.3501,22.75,75,100,8.7,US,1696167602
487,487,delacombe,-37.5891,143.8147,3.96,94,0,1.55,AU,1696167603
488,488,rosignol,6.2833,-57.5333,33.29,44,100,2.83,GY,1696167603
489,489,aitape,-3.1374,142.3475,25.82,89,69,1.16,PG,1696167603
490,490,joao pinheiro,-17.7425,-46.1725,31.36,37,69,3.51,BR,1696167604
491,491,ephrata,40.1798,-76.1788,20.88,78,0,3.09,US,1696167604
492,492,petrovsk-zabaykal'skiy,51.273,108.843,10.16,62,100,1.34,RU,1696167604
493,493,scottburgh,-30.2867,30.7532,18.65,60,85,5.62,ZA,1696167604
494,494,westport,41.1415,-73.3579,18.6,84,0,2.24,US,1696167364
495,495,ylitornio,66.3089,23.6773,10.97,79,69,1.34,FI,1696167605
496,496,vilyuysk,63.7553,121.6247,7.22,82,99,0.89,RU,1696167605
497,497,fontanelas,38.8472,-9.4372,32.67,47,0,3.09,PT,1696167605
498,498,aginskoye,51.1,114.53,8.83,51,16,1.63,RU,1696167605
499,499,corner brook,48.9667,-57.9484,13.09,56,11,3.16,CA,1696167455
500,500,khorugh,37.4897,71.553,17.19,22,98,2.84,TJ,1696167606
501,501,bougouni,11.417,-7.479,36.08,40,87,0.12,ML,1696167606
502,502,hamar,60.7945,11.068,15.09,52,32,0.28,NO,1696167607
503,503,san julian,21.0167,-102.1667,15.74,67,7,2.03,MX,1696167607
504,504,margate,51.3813,1.3862,22.15,73,100,1.79,GB,1696167607
505,505,bel ombre,-4.6167,55.4167,27.91,83,40,4.63,SC,1696167607
506,506,turaif,31.6725,38.6637,30.14,21,0,6.17,SA,1696167404
507,507,la gi,10.6667,107.7833,26.62,87,100,1.5,VN,1696167608
508,508,revelstoke,50.9832,-118.2023,2.01,100,20,1.03,CA,1696167608
509,509,paita,-5.0892,-81.1144,21.47,75,64,5.1,PE,1696167608
510,510,harper,4.375,-7.7169,26.32,85,55,5.05,LR,1696167608
511,511,darwin,-12.4611,130.8418,27.72,78,79,4.47,AU,1696167607
512,512,tazacorte,28.629,-17.9293,27.3,81,20,3.6,ES,1696167609
513,513,iyidere,41.0119,40.3619,21.98,88,100,1.89,TR,1696167609
514,514,joshimath,30.5667,79.5667,18.38,87,25,1.17,IN,1696167609
515,515,gobabis,-22.45,18.9667,33.73,6,0,3.32,,1696167609
516,516,la ronge,55.1001,-105.2842,7.14,70,100,2.06,CA,1696167449
517,517,isla vista,34.4133,-119.861,14.14,83,0,1.54,US,1696167610
518,518,antofagasta,-23.65,-70.4,17.6,65,34,2.91,CL,1696167610
519,519,yudong,29.385,106.5194,23.61,99,97,1.53,CN,1696167610
520,520,ust-tsilma,65.441,52.1498,12.22,97,100,2.67,RU,1696167611
521,521,atraulia,26.3333,82.95,26.89,80,12,0.4,IN,1696167611
522,522,anadarko,35.0726,-98.2437,21.01,55,48,4.44,US,1696167611
523,523,hohhot,40.8106,111.6522,11.16,50,0,2.0,CN,1696167405
524,524,zhezqazghan,47.7833,67.7667,13.32,50,20,3.0,KZ,1696167611
525,525,inderbor,48.55,51.7833,20.23,38,0,3.25,KZ,1696167612
526,526,gargalianoi,37.0667,21.6333,25.34,59,8,3.15,GR,1696167612
527,527,hobyo,5.3505,48.5268,27.08,77,28,9.03,SO,1696167612
528,528,amuntai,-2.4177,115.2494,25.85,56,63,0.41,ID,1696167612
529,529,aoulef,26.9667,1.0833,38.87,13,0,6.43,DZ,1696167613
530,530,siniscola,40.5719,9.6922,26.75,49,0,2.91,IT,1696167613
531,531,angicos,-5.6656,-36.6011,33.69,29,100,5.21,BR,1696167613
532,532,ulladulla,-35.35,150.4667,14.75,68,21,2.8,AU,1696167613
533,533,kachug,53.9606,105.8817,6.7,77,100,4.47,RU,1696167614
534,534,dalmatovo,56.26,62.9362,11.05,77,3,3.37,RU,1696167614
535,535,ola,59.5833,151.2833,8.01,88,100,0.19,RU,1696167614
536,536,remire-montjoly,4.9167,-52.2667,32.02,58,75,4.12,GF,1696167614
537,537,guiratinga,-16.3494,-53.7583,36.34,32,24,1.82,BR,1696167614
538,538,extrema,-22.8547,-46.3183,25.22,70,82,4.88,BR,1696167615
539,539,ojinaga,29.5667,-104.4167,25.79,57,0,3.6,MX,1696167615
540,540,dalandzadgad,43.5708,104.425,15.28,18,100,1.76,MN,1696167615
541,541,saint-raphael,19.4333,-72.2,27.65,76,100,1.4,HT,1696167616
542,542,mejit,10.2753,170.8646,26.86,77,100,3.25,MH,1696167616
543,543,katsuura,35.1333,140.3,24.92,85,98,1.98,JP,1696167426
544,544,prado,-17.3411,-39.2208,26.4,60,17,3.63,BR,1696167616
545,545,hithadhoo,-0.6,73.0833,28.11,71,86,6.2,MV,1696167616
546,546,sao joao da barra,-21.6403,-41.0511,23.05,76,100,8.07,BR,1696167617
547,547,mount isa,-20.7333,139.5,18.87,37,4,0.0,AU,1696167617
548,548,nouna,12.7333,-3.8667,40.87,19,35,4.89,BF,1696167617
549,549,coquimbo,-29.9533,-71.3436,13.85,76,100,1.54,CL,1696167522
550,550,verkhniy mamon,50.1635,40.3832,24.02,28,83,2.75,RU,1696167618
551,551,padangsidempuan,1.3667,99.2667,23.16,99,77,1.17,ID,1696167618
552,552,ebon,4.582,168.6964,28.2,76,12,3.17,MH,1696167618
553,553,pemalang,-6.9,109.3667,25.91,70,27,1.9,ID,1696167619
554,554,mermoz boabab,14.7065,-17.4758,32.31,75,98,2.33,SN,1696167619
555,555,chipinge,-20.1883,32.6236,30.19,29,42,6.02,ZW,1696167619
556,556,charters towers,-20.1,146.2667,17.94,90,8,3.98,AU,1696167619
557,557,sweet home,44.3976,-122.7362,6.08,94,7,1.24,US,1696167620
558,558,cranbrook,49.4999,-115.7688,5.91,87,75,1.03,CA,1696167536
559,559,kingston,17.997,-76.7936,32.53,74,20,1.54,JM,1696167317
560,560,azul,-36.777,-59.8585,15.76,37,0,1.0,AR,1696167620
